{"type":"FeatureCollection","features":[{"type":"Feature","id":"qualidade_agua.1","geometry":{"type":"Point","coordinates":[-61.4406,2.8708]},"geometry_name":"geom","properties":{"estacao_rr":"RR-484-I-6","cd_estacao":14680002,"est_nome":"FÉ ESPERANÇA","municipio":"ALTO ALEGRE","corp_dagua":"RIO MUCAJAÍ","altitude":80.7,"descricao":"Ponte sobre o rio Mucajaí na RR-205, Município de Alto Alegre,","entid_resp":"FEMARH","cod_amb":1,"ambiente":"RIO","lat_dec":2.8708,"long_dec":-61.4406}},{"type":"Feature","id":"qualidade_agua.2","geometry":{"type":"Point","coordinates":[-60.909725,3.464668]},"geometry_name":"geom","properties":{"estacao_rr":"RR-484-I-15","cd_estacao":14500001,"est_nome":"MOCIDADE","municipio":"AMAJARI","corp_dagua":"RIO URARICOERA","altitude":62.5,"descricao":"Ponte sobre o rio Uraricoera na BR-174, KM 75, Município de Amajarí.","entid_resp":"FEMARH","cod_amb":1,"ambiente":"RIO","lat_dec":3.464668,"long_dec":-60.909725}},{"type":"Feature","id":"qualidade_agua.3","geometry":{"type":"Point","coordinates":[-61.359567,3.663517]},"geometry_name":"geom","properties":{"estacao_rr":"RR-484-R-35","cd_estacao":14488500,"est_nome":"PONTE RIO AMAJARI","municipio":"AMAJARI","corp_dagua":"RIO AMAJARI","altitude":126.8,"descricao":"Ponte sobre o rio Amajarí na RR-203, Municípío de Amajarí.","entid_resp":"FEMARH","cod_amb":1,"ambiente":"RIO","lat_dec":3.663517,"long_dec":-61.359567}},{"type":"Feature","id":"qualidade_agua.4","geometry":{"type":"Point","coordinates":[-60.621964,2.857107]},"geometry_name":"geom","properties":{"estacao_rr":"RR-484-I-4","cd_estacao":14569000,"est_nome":"CURUPIRA","municipio":"BOA VISTA","corp_dagua":"RIO CAUAMÉ","altitude":68,"descricao":"Balneário Curupira, Município de Boa Vista.","entid_resp":"FEMARH","cod_amb":1,"ambiente":"RIO","lat_dec":2.857107,"long_dec":-60.621964}},{"type":"Feature","id":"qualidade_agua.5","geometry":{"type":"Point","coordinates":[-60.679027,2.881036]},"geometry_name":"geom","properties":{"estacao_rr":"RR-482-I-1","cd_estacao":14568000,"est_nome":"CARRAPATO","municipio":"BOA VISTA","corp_dagua":"IG. CARRAPATO","altitude":78.7,"descricao":"Ponte sobre o igarapé Carapato, bairro Pedra Pintada, Município de Boa Vista.","entid_resp":"FEMARH","cod_amb":1,"ambiente":"RIO","lat_dec":2.881036,"long_dec":-60.679027}},{"type":"Feature","id":"qualidade_agua.6","geometry":{"type":"Point","coordinates":[-60.54018,4.172047]},"geometry_name":"geom","properties":{"estacao_rr":"RR-484-R-31","cd_estacao":14550001,"est_nome":"CONTÃO","municipio":"PACARAIMA","corp_dagua":"RIO COTINGO","altitude":105.8,"descricao":"Ponte sobre o rio Cotingo na RR-202, Comunidade do Contão, Município de Pacaraima.","entid_resp":"FEMARH","cod_amb":1,"ambiente":"RIO","lat_dec":4.172047,"long_dec":-60.54018}},{"type":"Feature","id":"qualidade_agua.7","geometry":{"type":"Point","coordinates":[-60.7939,4.1961]},"geometry_name":"geom","properties":{"estacao_rr":"RR-484-R-8","cd_estacao":14530001,"est_nome":"VILA SURUMU","municipio":"PACARAIMA","corp_dagua":"RIO SURUMU","altitude":124.6,"descricao":"Próximo a Ponte sobre o rio Surumú na RR-202, Vila Surumú, Município de Pacaraima.","entid_resp":"FEMARH","cod_amb":1,"ambiente":"RIO","lat_dec":4.1961,"long_dec":-60.7939}},{"type":"Feature","id":"qualidade_agua.8","geometry":{"type":"Point","coordinates":[-60.863576,1.476127]},"geometry_name":"geom","properties":{"estacao_rr":"RR-484-I-2","cd_estacao":14820000,"est_nome":"PONTE BARAUANA","municipio":"CARACARAÍ","corp_dagua":"RIO BARAUANA","altitude":55.7,"descricao":"Ponte sobre o rio Baraúna na BR-174, Município de Caracaraí.","entid_resp":"FEMARH","cod_amb":1,"ambiente":"RIO","lat_dec":1.476127,"long_dec":-60.863576}},{"type":"Feature","id":"qualidade_agua.9","geometry":{"type":"Point","coordinates":[-60.773398,2.904509]},"geometry_name":"geom","properties":{"estacao_rr":"RR-482-I-3","cd_estacao":14567000,"est_nome":"ANEL VIÁRIO","municipio":"BOA VISTA","corp_dagua":"RIO CAUAMÉ","altitude":60.6,"descricao":"Ponte sobre o rio Cauamé, na estrada do Anel Viário, no Município de Boa Vista.","entid_resp":"FEMARH","cod_amb":1,"ambiente":"RIO","lat_dec":2.904509,"long_dec":-60.773398}},{"type":"Feature","id":"qualidade_agua.10","geometry":{"type":"Point","coordinates":[-60.39891,1.130132]},"geometry_name":"geom","properties":{"estacao_rr":"RR-482-R-6","cd_estacao":14810001,"est_nome":"PONTE DO ANAUÁ","municipio":"CARACARAÍ","corp_dagua":"RIO ANAUÁ","altitude":74.1,"descricao":"Ponte sobre o rio Anauá na BR-174, Município de Caracaraí.","entid_resp":"FEMARH","cod_amb":1,"ambiente":"RIO","lat_dec":1.130132,"long_dec":-60.39891}},{"type":"Feature","id":"qualidade_agua.11","geometry":{"type":"Point","coordinates":[-60.9178,2.4714]},"geometry_name":"geom","properties":{"estacao_rr":"RR-484-R-12","cd_estacao":14690001,"est_nome":"PONTE BR-174","municipio":"MUCAJAÍ","corp_dagua":"RIO MUCAJAÍ","altitude":67.8,"descricao":"Ponte sobre o rio Mucajaí na BR-174, Município de Mucajaí.","entid_resp":"FEMARH","cod_amb":1,"ambiente":"RIO","lat_dec":2.4714,"long_dec":-60.9178}},{"type":"Feature","id":"qualidade_agua.12","geometry":{"type":"Point","coordinates":[-60.465574,0.515409]},"geometry_name":"geom","properties":{"estacao_rr":"RR-484-R-36","cd_estacao":14845001,"est_nome":"PONTE JAUAPERI","municipio":"RORAINÓPOLIS","corp_dagua":"RIO JAUAPERI","altitude":57.6,"descricao":"Ponte sobre o rio Jauaperi na BR-174, Vila Nova Colina, Município de Rorainópolis.","entid_resp":"FEMARH","cod_amb":1,"ambiente":"RIO","lat_dec":0.515409,"long_dec":-60.465574}},{"type":"Feature","id":"qualidade_agua.13","geometry":{"type":"Point","coordinates":[-60.4834639,1.7293028]},"geometry_name":"geom","properties":{"estacao_rr":null,"cd_estacao":null,"est_nome":"BARAUANA BR 432","municipio":"CARACARAÍ","corp_dagua":"RIO BARAUANA","altitude":0,"descricao":"-","entid_resp":"-","cod_amb":0,"ambiente":null,"lat_dec":1.729303,"long_dec":-60.483464}},{"type":"Feature","id":"qualidade_agua.14","geometry":{"type":"Point","coordinates":[-60.66775,2.42188889]},"geometry_name":"geom","properties":{"estacao_rr":null,"cd_estacao":null,"est_nome":"PONTE CACHORRO BR 432","municipio":"CANTA","corp_dagua":"CACHORRO","altitude":0,"descricao":"-","entid_resp":"-","cod_amb":0,"ambiente":null,"lat_dec":2.421889,"long_dec":-60.66775}},{"type":"Feature","id":"qualidade_agua.15","geometry":{"type":"Point","coordinates":[-60.63538889,2.56794444]},"geometry_name":"geom","properties":{"estacao_rr":null,"cd_estacao":null,"est_nome":"PONTE QUITAUAÚ","municipio":"CANTA","corp_dagua":"QUITAUAÚ","altitude":0,"descricao":"-","entid_resp":"-","cod_amb":0,"ambiente":null,"lat_dec":2.567944,"long_dec":-60.635389}},{"type":"Feature","id":"qualidade_agua.16","geometry":{"type":"Point","coordinates":[-60.34353611,1.57812222]},"geometry_name":"geom","properties":{"estacao_rr":null,"cd_estacao":null,"est_nome":"ITÃN 432","municipio":"CARACARAÍ","corp_dagua":"RIO ITÃN ","altitude":0,"descricao":"-","entid_resp":"-","cod_amb":0,"ambiente":null,"lat_dec":1.578122,"long_dec":-60.343536}},{"type":"Feature","id":"qualidade_agua.17","geometry":{"type":"Point","coordinates":[-60.752275,1.45231667]},"geometry_name":"geom","properties":{"estacao_rr":null,"cd_estacao":null,"est_nome":"ITÃN PONTE 174","municipio":"CARACARAÍ","corp_dagua":"RIO ITÃN ","altitude":0,"descricao":"-","entid_resp":"-","cod_amb":0,"ambiente":null,"lat_dec":1.452317,"long_dec":-60.752275}},{"type":"Feature","id":"qualidade_agua.18","geometry":{"type":"Point","coordinates":[-60.51003611,1.27588333]},"geometry_name":"geom","properties":{"estacao_rr":null,"cd_estacao":null,"est_nome":"PONTE RIO DIAS ","municipio":"CARACARAÍ","corp_dagua":"RIO DIAS ","altitude":0,"descricao":"-","entid_resp":"-","cod_amb":0,"ambiente":null,"lat_dec":1.275883,"long_dec":-60.510036}},{"type":"Feature","id":"qualidade_agua.19","geometry":{"type":"Point","coordinates":[-60.13999167,4.57616389]},"geometry_name":"geom","properties":{"estacao_rr":null,"cd_estacao":null,"est_nome":"RIO MAÚ","municipio":"UIRAMUTÃ","corp_dagua":"RIO MAÚ","altitude":0,"descricao":"-","entid_resp":"-","cod_amb":0,"ambiente":null,"lat_dec":4.576164,"long_dec":-60.139992}},{"type":"Feature","id":"qualidade_agua.20","geometry":{"type":"Point","coordinates":[-60.272186,4.495068]},"geometry_name":"geom","properties":{"estacao_rr":null,"cd_estacao":null,"est_nome":"PEDRA BRANCA","municipio":"UIRAMUTÃ","corp_dagua":"RIO COTINGO","altitude":0,"descricao":"-","entid_resp":"-","cod_amb":0,"ambiente":null,"lat_dec":4.495068,"long_dec":-60.272186}},{"type":"Feature","id":"qualidade_agua.21","geometry":{"type":"Point","coordinates":[-61.05083333,2.93966111]},"geometry_name":"geom","properties":{"estacao_rr":null,"cd_estacao":null,"est_nome":"RIO AU-AU","municipio":"ALTO ALEGRE","corp_dagua":"RIO AU-AU","altitude":0,"descricao":"-","entid_resp":"-","cod_amb":0,"ambiente":null,"lat_dec":2.939661,"long_dec":-61.050833}},{"type":"Feature","id":"qualidade_agua.22","geometry":{"type":"Point","coordinates":[-61.37454722,0.91522778]},"geometry_name":"geom","properties":{"estacao_rr":null,"cd_estacao":null,"est_nome":"FOZ ANAUÁ","municipio":"RORAINOPOLIS","corp_dagua":"RIO ANAUÁ","altitude":0,"descricao":"-","entid_resp":"-","cod_amb":0,"ambiente":null,"lat_dec":0.915228,"long_dec":-61.374547}},{"type":"Feature","id":"qualidade_agua.23","geometry":{"type":"Point","coordinates":[-61.79786389,-0.44863889]},"geometry_name":"geom","properties":{"estacao_rr":null,"cd_estacao":null,"est_nome":"FOZ ITAPARA ","municipio":"CARACARAÍ","corp_dagua":"RIO ITAPARA","altitude":0,"descricao":"-","entid_resp":"-","cod_amb":0,"ambiente":null,"lat_dec":-0.448639,"long_dec":-61.797864}},{"type":"Feature","id":"qualidade_agua.24","geometry":{"type":"Point","coordinates":[-61.79745556,-0.53117222]},"geometry_name":"geom","properties":{"estacao_rr":null,"cd_estacao":null,"est_nome":"SANTA MARIA DO BOIAÇU","municipio":"RORAINOPOLIS","corp_dagua":"RIO BRANCO","altitude":0,"descricao":"-","entid_resp":"-","cod_amb":0,"ambiente":null,"lat_dec":-0.531172,"long_dec":-61.797456}},{"type":"Feature","id":"qualidade_agua.25","geometry":{"type":"Point","coordinates":[-61.703204,0.489709]},"geometry_name":"geom","properties":{"estacao_rr":"RR-484-I-40","cd_estacao":14830000,"est_nome":"FOZ UNIVINI","municipio":"CARACARAÍ","corp_dagua":"RIO UNIVINI","altitude":32,"descricao":"Proximo a Foz do Rio Univini, na região do Baixo Rio Branco, Município de Caracaraí.","entid_resp":"FEMARH","cod_amb":1,"ambiente":"RIO","lat_dec":0.489709,"long_dec":-61.703204}},{"type":"Feature","id":"qualidade_agua.26","geometry":{"type":"Point","coordinates":[-61.127095,1.813721]},"geometry_name":"geom","properties":{"estacao_rr":"RR-484-R-9","cd_estacao":14711000,"est_nome":"PORTO CARACARAÍ","municipio":"CARACARAÍ","corp_dagua":"RIO BRANCO","altitude":59.3,"descricao":"Proximo ao Porto de Caracaraí, Sede do Município de Caracaraí.","entid_resp":"FEMARH","cod_amb":1,"ambiente":"RIO","lat_dec":1.813721,"long_dec":-61.127095}},{"type":"Feature","id":"qualidade_agua.27","geometry":{"type":"Point","coordinates":[-60.3447,3.3178]},"geometry_name":"geom","properties":{"estacao_rr":"RR-484-R-16","cd_estacao":14528001,"est_nome":"FAZ. PARAÍSO","municipio":"BONFIM","corp_dagua":"RIO TACUTU","altitude":70.7,"descricao":"Fazenda Paraíso, Região da Serra do Tucano, Município de Bonfim.","entid_resp":"FEMARH","cod_amb":1,"ambiente":"RIO","lat_dec":3.3178,"long_dec":-60.3447}},{"type":"Feature","id":"qualidade_agua.28","geometry":{"type":"Point","coordinates":[-60.317124,3.375786]},"geometry_name":"geom","properties":{"estacao_rr":"RR-484-R-18","cd_estacao":14527500,"est_nome":"SURUMU-TACUTU","municipio":"NORMANDIA","corp_dagua":"RIO SURUMU","altitude":73.3,"descricao":"Confluencia dos rios Surumu com rio Tacutu, Município de Normandia.","entid_resp":"FEMARH","cod_amb":1,"ambiente":"RIO","lat_dec":3.375786,"long_dec":-60.317124}},{"type":"Feature","id":"qualidade_agua.29","geometry":{"type":"Point","coordinates":[-61.32206111,1.23181667]},"geometry_name":"geom","properties":{"estacao_rr":null,"cd_estacao":null,"est_nome":"ILHA GRANDE","municipio":"CARACARAÍ","corp_dagua":"RIO BRANCO","altitude":0,"descricao":"-","entid_resp":"-","cod_amb":0,"ambiente":null,"lat_dec":1.231817,"long_dec":-61.322061}},{"type":"Feature","id":"qualidade_agua.30","geometry":{"type":"Point","coordinates":[-61.711775,0.46625]},"geometry_name":"geom","properties":{"estacao_rr":null,"cd_estacao":null,"est_nome":"FOZ CATRIMANI","municipio":"CARACARAÍ","corp_dagua":"RIO CATRIMANI","altitude":0,"descricao":"-","entid_resp":"-","cod_amb":0,"ambiente":null,"lat_dec":0.46625,"long_dec":-61.711775}},{"type":"Feature","id":"qualidade_agua.31","geometry":{"type":"Point","coordinates":[-59.808894,3.374188]},"geometry_name":"geom","properties":{"estacao_rr":"RR-484-IE-33","cd_estacao":14526001,"est_nome":"SEDE","municipio":"BONFIM","corp_dagua":"RIO TACUTU","altitude":77.3,"descricao":"Proximo a ponte que faz fronteira BRASIL/GUIANA, Município de Bonfim","entid_resp":"FEMARH","cod_amb":1,"ambiente":null,"lat_dec":3.374188,"long_dec":-59.808894}},{"type":"Feature","id":"qualidade_agua.32","geometry":{"type":"Point","coordinates":[-59.888333,3.5675]},"geometry_name":"geom","properties":{"estacao_rr":"RR-484-IE-14","cd_estacao":14527001,"est_nome":"PONTE TACUTU","municipio":"BONFIM","corp_dagua":"RIO TACUTU","altitude":75.8,"descricao":"Ponte sobre o rio Tacutu na BR-401, Sentido Município de Normandia.","entid_resp":"FEMARH","cod_amb":1,"ambiente":"RIO","lat_dec":3.5675,"long_dec":-59.888333}},{"type":"Feature","id":"qualidade_agua.33","geometry":{"type":"Point","coordinates":[-60.656099,2.826564]},"geometry_name":"geom","properties":{"estacao_rr":"RR-484-I-13","cd_estacao":14620001,"est_nome":"CAER","municipio":"BOA VISTA","corp_dagua":"RIO BRANCO","altitude":59.3,"descricao":"Próximo ao Distrito Industrial, que fica na margem direita do rio Branco, Município de Boa Vista.","entid_resp":"FEMARH","cod_amb":1,"ambiente":"RIO","lat_dec":2.826564,"long_dec":-60.656099}},{"type":"Feature","id":"qualidade_agua.34","geometry":{"type":"Point","coordinates":[-60.48956,3.017284]},"geometry_name":"geom","properties":{"estacao_rr":"RR-484-R-7","cd_estacao":14521000,"est_nome":"FAZENDA CAPELA","municipio":"BOA VISTA","corp_dagua":"RIO BRANCO","altitude":66.2,"descricao":"Fazenda Capela, Região do Alto Rio Branco (rios tacutu/urariocoera), Município de Boa Vista.","entid_resp":"FEMARH","cod_amb":1,"ambiente":"RIO","lat_dec":3.017284,"long_dec":-60.48956}},{"type":"Feature","id":"qualidade_agua.35","geometry":{"type":"Point","coordinates":[-60.842714,2.338142]},"geometry_name":"geom","properties":{"estacao_rr":"RR-484-R-11","cd_estacao":14839000,"est_nome":"FOZ IG. CACHORRO","municipio":"CANTÁ","corp_dagua":"RIO BRANCO","altitude":55.7,"descricao":"Próximo a Foz do Rio Cachorro, a estrada de acesso ao rio Branco, se dá logo após a sede do Município de Mucajaí (sentido Boa Vista/Mucajaí), daí entra na estrada de chão denominada de estrada do Brigadeiro, no Município de Mucajaí.","entid_resp":"FEMARH","cod_amb":1,"ambiente":"RIO","lat_dec":2.338142,"long_dec":-60.842714}},{"type":"Feature","id":"qualidade_agua.36","geometry":{"type":"Point","coordinates":[-60.69099,2.763802]},"geometry_name":"geom","properties":{"estacao_rr":"RR-484-I-1","cd_estacao":14630000,"est_nome":"DISTRITO INDUSTRIAL","municipio":"BOA VISTA","corp_dagua":"RIO BRANCO","altitude":64.7,"descricao":"Próximo ao Distrito Industrial, que fica na margem direita do rio Branco, Município de Boa Vista.","entid_resp":"FEMARH","cod_amb":1,"ambiente":"RIO","lat_dec":2.763802,"long_dec":-60.69099}},{"type":"Feature","id":"qualidade_agua.37","geometry":{"type":"Point","coordinates":[-60.571111,3.207778]},"geometry_name":"geom","properties":{"estacao_rr":"RR-484-R-3","cd_estacao":14515001,"est_nome":"BALSA PASSARÃO","municipio":"AMAJARI","corp_dagua":"RIO URARICOERA","altitude":69.7,"descricao":"Balsa do Passarão, Município de Boa Vista.","entid_resp":"FEMARH","cod_amb":1,"ambiente":"RIO","lat_dec":3.207778,"long_dec":-60.571111}},{"type":"Feature","id":"qualidade_agua.38","geometry":{"type":"Point","coordinates":[-60.77561944,3.02040833]},"geometry_name":"geom","properties":{"estacao_rr":null,"cd_estacao":null,"est_nome":"PONTE MURUPÚ","municipio":"BOA VISTA","corp_dagua":"MURUPÚ","altitude":0,"descricao":"-","entid_resp":"-","cod_amb":0,"ambiente":null,"lat_dec":3.020408,"long_dec":-60.775619}}],"totalFeatures":38,"numberMatched":38,"numberReturned":38,"timeStamp":"2024-05-17T12:47:49.754Z","crs":{"type":"name","properties":{"name":"urn:ogc:def:crs:EPSG::4674"}}}